City_ID,City,Country,Date,Lat,Lng,Max Temp,Humidity,Cloudiness,Wind Speed,Current Description,Rain inches (last 3 hrs),Snow inches (last 3 hrs)
0,Castro,CL,2019-08-26 17:25:49,-42.48,-73.76,48.2,61,40,14.99,scattered clouds,0.0,0
1,Lebu,ET,2019-08-26 17:25:49,8.96,38.73,58.69,83,72,1.45,light rain,2.187,0
2,Sitka,US,2019-08-26 17:25:49,37.17,-99.65,90.0,46,6,21.0,clear sky,0.0,0
3,Torbay,CA,2019-08-26 17:25:49,47.66,-52.73,75.0,43,20,10.29,few clouds,0.0,0
4,Grandview,US,2019-08-26 17:25:50,38.89,-94.53,69.8,93,40,4.7,heavy intensity rain,0.0,0
5,Mataura,NZ,2019-08-26 17:25:50,-46.19,168.86,36.91,86,87,8.93,light rain,0.124,0
6,Cidreira,BR,2019-08-26 17:25:50,-30.17,-50.22,72.01,50,48,3.44,scattered clouds,0.0,0
7,Hilo,US,2019-08-26 17:25:50,19.71,-155.08,75.2,88,90,4.7,heavy intensity rain,0.0,0
8,Great Falls,US,2019-08-26 17:25:51,47.5,-111.29,63.0,58,1,2.39,clear sky,0.0,0
9,Lata,IN,2019-08-26 17:25:51,30.78,78.62,41.77,93,87,1.66,light rain,0.375,0
10,Imeni Stepana Razina,RU,2019-08-26 17:25:51,54.89,44.3,54.91,80,88,6.38,overcast clouds,0.0,0
11,Punta Arenas,CL,2019-08-26 17:25:51,-53.16,-70.91,42.8,70,0,24.16,clear sky,0.0,0
12,Bluff,AU,2019-08-26 17:25:52,-23.58,149.07,57.43,81,18,5.21,few clouds,0.0,0
13,Port Macquarie,AU,2019-08-26 17:24:14,-31.43,152.91,53.01,100,7,2.39,light intensity shower rain,0.0,0
14,Puerto Ayora,EC,2019-08-26 17:25:52,-0.74,-90.35,78.8,65,20,16.11,few clouds,0.0,0
15,Avera,US,2019-08-26 17:25:53,33.19,-82.53,86.0,69,75,5.82,broken clouds,0.0,0
16,Cape Town,ZA,2019-08-26 17:25:53,-33.93,18.42,57.99,66,20,3.36,few clouds,0.0,0
17,Kapaa,US,2019-08-26 17:25:54,22.08,-159.32,82.4,69,75,20.8,broken clouds,0.0,0
18,Ostrovnoy,RU,2019-08-26 17:25:54,68.05,39.51,43.21,90,96,12.88,overcast clouds,0.0,0
19,Rock Sound,BS,2019-08-26 17:24:12,24.9,-76.2,84.43,76,85,9.91,overcast clouds,0.0,0
20,Faribault,US,2019-08-26 17:25:55,44.3,-93.27,71.01,77,90,8.05,light rain,0.0,0
21,Luderitz,NA,2019-08-26 17:25:56,-26.65,15.16,62.6,72,0,23.04,clear sky,0.0,0
22,Busselton,AU,2019-08-26 17:25:56,-33.64,115.35,44.01,61,31,11.32,scattered clouds,0.0,0
23,Fazilka,IN,2019-08-26 17:25:56,30.41,74.03,86.59,55,68,5.84,broken clouds,0.0,0
24,Lavrentiya,RU,2019-08-26 17:25:56,65.58,-170.99,52.03,81,99,7.47,overcast clouds,0.0,0
25,Berezovyy,RU,2019-08-26 17:25:57,51.67,135.7,52.93,92,1,2.91,clear sky,0.0,0
26,Butaritari,KI,2019-08-26 17:25:57,3.07,172.79,84.97,69,100,9.46,light rain,0.124,0
27,Albany,US,2019-08-26 17:21:00,42.65,-73.75,77.0,44,1,3.36,clear sky,0.0,0
28,Atuona,PF,2019-08-26 17:25:58,-9.8,-139.03,79.03,72,26,18.72,light rain,0.25,0
29,Whitehorse,CA,2019-08-26 17:25:58,60.72,-135.06,52.0,81,75,8.05,broken clouds,0.0,0
30,San Patricio,PY,2019-08-26 17:25:58,-26.98,-56.83,77.05,54,100,7.09,light rain,0.25,0
31,Jamestown,AU,2019-08-26 17:25:59,-33.21,138.6,38.35,85,44,2.1,scattered clouds,0.0,0
32,Prince Rupert,CA,2019-08-26 17:21:00,54.32,-130.32,55.4,100,90,4.7,light rain,0.0,0
33,Ushuaia,AR,2019-08-26 17:24:20,-54.81,-68.31,41.0,93,90,5.82,shower rain,0.0,0
34,Souillac,FR,2019-08-26 17:25:59,45.6,-0.6,91.4,33,0,6.93,clear sky,0.0,0
35,Yatou,CM,2019-08-26 17:26:00,3.63,9.81,82.4,78,75,3.36,broken clouds,0.0,0
36,Yellowknife,CA,2019-08-26 17:26:00,62.45,-114.38,57.2,67,75,11.41,broken clouds,0.0,0
37,Gazanjyk,TM,2019-08-26 17:26:00,39.24,55.52,84.97,12,0,2.35,clear sky,0.0,0
38,Avarua,CK,2019-08-26 17:24:01,-21.21,-159.78,71.6,78,98,11.41,overcast clouds,0.0,0
39,Carnarvon,ZA,2019-08-26 17:26:01,-30.97,22.13,55.27,31,0,15.48,clear sky,0.0,0
40,Hobart,AU,2019-08-26 17:26:01,-42.88,147.33,50.0,66,75,6.93,broken clouds,0.0,0
41,Dodge City,US,2019-08-26 17:22:23,37.75,-100.02,90.0,46,1,21.92,clear sky,0.0,0
42,Provideniya,RU,2019-08-26 17:26:02,64.42,-173.23,49.15,93,100,5.61,overcast clouds,0.0,0
43,Rikitea,PF,2019-08-26 17:26:02,-23.12,-134.97,68.77,63,6,11.18,clear sky,0.0,0
44,Sovetskiy,RU,2019-08-26 17:26:02,56.76,48.47,52.57,80,99,8.97,overcast clouds,0.0,0
45,Villa Maria,CO,2019-08-26 17:26:02,4.5,-74.09,80.6,55,75,16.11,broken clouds,0.0,0
46,Port Elizabeth,US,2019-08-26 17:26:03,39.31,-74.98,73.99,64,90,13.87,overcast clouds,0.0,0
47,Chai Badan,TH,2019-08-26 17:26:03,15.2,101.13,81.0,86,100,4.9,light rain,0.626,0
48,Kaniama,CD,2019-08-26 17:26:03,-7.57,24.18,77.59,49,82,3.04,broken clouds,0.0,0
49,Pevek,RU,2019-08-26 17:23:37,69.7,170.27,40.15,97,99,12.46,light rain,0.626,0
50,Constitucion,MX,2019-08-26 17:26:04,23.99,-104.67,75.0,60,75,3.36,broken clouds,0.0,0
51,Leningradskiy,RU,2019-08-26 17:26:04,69.38,178.42,45.73,99,100,11.68,light rain,0.5,0
52,Emba,CY,2019-08-26 17:26:05,34.81,32.42,82.4,78,0,11.41,clear sky,0.0,0
53,Padang,ID,2019-08-26 17:26:05,-0.92,100.36,80.29,85,92,13.6,moderate rain,10.437,0
54,Rorvik,NO,2019-08-26 17:26:05,64.86,11.24,71.6,60,0,5.82,clear sky,0.0,0
55,Hermanus,ZA,2019-08-26 17:26:06,-34.42,19.24,55.0,75,92,5.99,light rain,0.312,0
56,Moerai,PF,2019-08-26 17:26:06,-22.43,-151.33,73.99,84,0,10.07,light rain,0.126,0
57,Colares,PT,2019-08-26 17:26:06,38.8,-9.45,84.2,47,20,4.7,few clouds,0.0,0
58,Okhotsk,RU,2019-08-26 17:26:07,59.36,143.24,50.59,95,100,7.23,light rain,0.688,0
59,Killin,US,2019-08-26 17:26:07,33.61,-91.74,86.0,66,75,5.82,broken clouds,0.0,0
60,Tarauaca,BR,2019-08-26 17:26:07,-8.16,-70.77,95.95,34,15,3.04,few clouds,0.0,0
61,Vaini,IN,2019-08-26 17:26:07,15.34,74.49,75.97,89,52,2.51,light rain,1.063,0
62,Lompoc,US,2019-08-26 17:26:08,34.64,-120.46,82.0,82,90,6.93,mist,0.0,0
63,Dikson,RU,2019-08-26 17:26:08,73.51,80.55,41.77,96,100,10.58,overcast clouds,0.0,0
64,Anadyr,RU,2019-08-26 17:26:08,64.73,177.51,48.2,93,0,6.71,clear sky,0.0,0
65,Ust-Kuyga,RU,2019-08-26 17:26:09,70.0,135.55,48.25,83,90,3.04,overcast clouds,0.0,0
66,Simao,CN,2019-08-26 17:26:09,22.76,100.79,66.97,97,90,0.47,light rain,1.813,0
67,Tual,ID,2019-08-26 17:26:09,-5.67,132.75,77.05,80,69,18.23,light rain,0.187,0
68,Klaksvik,FO,2019-08-26 17:25:03,62.23,-6.59,53.6,93,75,9.17,broken clouds,0.0,0
69,Georgetown,GY,2019-08-26 17:24:49,6.8,-58.16,93.2,66,40,11.41,scattered clouds,0.0,0
70,Codrington,AU,2019-08-26 17:26:10,-28.95,153.24,62.6,93,40,5.82,scattered clouds,0.0,0
71,Cherskiy,RU,2019-08-26 17:22:47,68.75,161.3,44.47,85,83,1.66,broken clouds,0.0,0
72,Umea,SE,2019-08-26 17:26:10,63.83,20.26,68.0,72,0,3.36,clear sky,0.0,0
73,Arraial Do Cabo,BR,2019-08-26 17:26:11,-22.97,-42.02,73.4,60,40,16.11,scattered clouds,0.0,0
74,Faanui,PF,2019-08-26 17:26:11,-16.48,-151.75,77.95,77,52,14.83,light rain,0.813,0
75,Sainte-Maxime,FR,2019-08-26 17:26:11,43.31,6.64,89.01,51,0,4.7,clear sky,0.0,0
76,Tiassale,CI,2019-08-26 17:26:12,5.9,-4.83,74.53,93,94,4.63,light rain,2.874,0
77,Launceston,AU,2019-08-26 17:21:39,-41.43,147.14,50.0,100,40,11.41,scattered clouds,0.0,0
78,Fortuna,US,2019-08-26 17:26:12,40.6,-124.16,75.0,64,1,4.7,haze,0.0,0
79,Ploemeur,FR,2019-08-26 17:26:12,47.73,-3.43,82.99,65,40,8.05,scattered clouds,0.0,0
80,Coahuayana,MX,2019-08-26 17:26:13,18.62,-100.35,82.81,76,100,2.35,overcast clouds,0.0,0
81,Araouane,ML,2019-08-26 17:26:13,18.9,-3.53,93.79,38,92,9.8,overcast clouds,0.0,0
82,Karratha,AU,2019-08-26 17:26:13,-20.74,116.85,55.63,82,58,2.44,broken clouds,0.0,0
83,Sabha,LY,2019-08-26 17:26:13,27.03,14.43,89.65,19,0,6.98,clear sky,0.0,0
84,Labuhan,ID,2019-08-26 17:26:14,-2.54,115.51,73.27,92,85,2.39,light rain,0.625,0
85,Bredasdorp,ZA,2019-08-26 17:26:14,-34.53,20.04,57.2,58,50,8.05,scattered clouds,0.0,0
86,Lysva,RU,2019-08-26 17:26:14,58.11,57.8,39.43,91,29,3.0,scattered clouds,0.0,0
87,Port Alfred,ZA,2019-08-26 17:26:15,-33.59,26.89,63.0,72,92,5.99,overcast clouds,0.0,0
88,Mana,NG,2019-08-26 17:26:15,13.03,5.27,81.91,68,83,5.26,light rain,1.875,0
89,Shimoda,JP,2019-08-26 17:26:15,34.7,138.93,73.0,93,22,6.31,few clouds,0.0,0
90,Xiongyue,CN,2019-08-26 17:26:16,40.18,122.12,75.97,76,100,14.5,light rain,0.25,0
91,Dingle,PH,2019-08-26 17:26:16,11.0,122.67,73.45,96,100,1.3,moderate rain,7.437,0
92,Mildura,AU,2019-08-26 17:26:16,-34.18,142.16,42.01,75,29,8.05,scattered clouds,0.0,0
93,Saskylakh,RU,2019-08-26 17:26:17,71.97,114.09,58.87,69,97,11.54,light rain,0.125,0
94,Campo Formoso,BR,2019-08-26 17:26:17,-10.51,-40.32,80.65,36,76,14.18,broken clouds,0.0,0
95,Omsukchan,RU,2019-08-26 17:26:17,62.53,155.8,44.83,92,100,3.62,overcast clouds,0.0,0
96,Port Hardy,CA,2019-08-26 17:26:18,50.7,-127.42,55.4,93,75,2.24,fog,0.0,0
97,Saint-Philippe,CA,2019-08-26 17:22:25,45.36,-73.48,79.0,50,1,3.36,clear sky,0.0,0
98,Zhezkazgan,KZ,2019-08-26 17:26:18,47.8,67.71,71.83,46,100,7.11,overcast clouds,0.0,0
99,Matamoros,US,2019-08-26 17:26:18,25.87,-97.51,96.8,53,40,24.16,scattered clouds,0.0,0
100,Talnakh,RU,2019-08-26 17:26:18,69.49,88.39,50.0,100,90,8.95,fog,0.0,0
101,Cap Malheureux,MU,2019-08-26 17:26:19,-19.98,57.61,72.0,60,75,11.41,broken clouds,0.0,0
102,Nambucca Heads,AU,2019-08-26 17:26:19,-30.64,152.99,59.0,93,75,8.05,broken clouds,0.0,0
103,Namibe,AO,2019-08-26 17:26:19,-15.19,12.15,71.6,78,40,17.22,scattered clouds,0.0,0
104,San Juan,AR,2019-08-26 17:26:20,-31.54,-68.53,69.49,11,1,4.41,clear sky,0.0,0
105,Thompson,CA,2019-08-26 17:24:02,55.74,-97.86,51.8,93,90,14.99,light rain,0.0,0
106,Saint-Joseph,FR,2019-08-26 17:26:20,43.56,6.97,89.6,51,0,4.7,clear sky,0.0,0
107,Khatanga,RU,2019-08-26 17:21:31,71.98,102.47,55.45,82,100,5.86,light rain,0.188,0
108,Mountain Home,US,2019-08-26 17:23:55,43.13,-115.69,71.6,28,1,11.41,clear sky,0.0,0
109,Timra,SE,2019-08-26 17:26:21,62.49,17.33,66.2,72,0,4.7,clear sky,0.0,0
110,Mareeba,AU,2019-08-26 17:26:21,-16.99,145.42,62.6,82,40,9.17,scattered clouds,0.0,0
111,Airai,TL,2019-08-26 17:26:21,-8.93,125.41,64.81,79,6,4.41,clear sky,0.0,0
112,Alekseyevka,RU,2019-08-26 17:26:22,53.25,50.49,59.0,58,0,2.24,clear sky,0.0,0
113,Luganville,VU,2019-08-26 17:26:22,-15.51,167.18,68.41,96,100,2.04,light rain,0.25,0
114,Half Moon Bay,US,2019-08-26 17:26:22,37.46,-122.43,79.0,77,5,3.36,clear sky,0.0,0
115,Marzuq,YE,2019-08-26 17:26:23,14.4,46.47,84.25,37,27,4.76,scattered clouds,0.0,0
116,Lerwick,GB,2019-08-26 17:26:23,60.15,-1.15,62.6,87,75,3.36,broken clouds,0.0,0
117,Kasempa,ZM,2019-08-26 17:26:23,-13.46,25.83,71.83,40,40,4.92,scattered clouds,0.0,0
118,Loiza,PR,2019-08-26 17:26:23,18.43,-65.88,91.99,62,20,19.46,haze,0.0,0
119,Tungor,RU,2019-08-26 17:26:24,53.39,142.95,54.19,93,0,12.1,clear sky,0.0,0
120,Deputatskiy,RU,2019-08-26 17:26:24,69.3,139.9,42.49,94,69,3.65,broken clouds,0.0,0
121,Phan Thiet,VN,2019-08-26 17:23:30,10.93,108.1,76.51,87,98,4.21,overcast clouds,0.0,0
122,Lenina,UA,2019-08-26 17:26:24,48.44,39.15,66.07,47,0,6.87,clear sky,0.0,0
123,Poptun,GT,2019-08-26 17:26:25,16.33,-89.42,95.23,41,12,1.48,few clouds,0.0,0
124,Cayenne,GF,2019-08-26 17:26:25,4.94,-52.33,91.4,49,0,6.93,clear sky,0.0,0
125,Ribeira Grande,PT,2019-08-26 17:26:25,38.52,-28.7,73.4,88,75,10.29,light intensity drizzle,0.0,0
126,Henties Bay,NA,2019-08-26 17:26:25,-22.12,14.28,60.01,84,0,10.0,clear sky,0.0,0
127,Bekhtery,UA,2019-08-26 17:26:26,46.25,32.3,82.4,34,0,8.95,clear sky,0.0,0
128,Baruun-Urt,MN,2019-08-26 17:26:26,46.68,113.28,48.07,78,6,11.9,clear sky,0.0,0
129,Lasa,CY,2019-08-26 17:26:26,34.92,32.53,82.4,78,0,11.41,clear sky,0.0,0
130,Fare,PF,2019-08-26 17:26:26,-16.7,-151.02,78.13,70,10,10.45,clear sky,0.0,0
131,Kaitangata,NZ,2019-08-26 17:26:27,-46.28,169.85,37.99,77,37,5.99,scattered clouds,0.0,0
132,Kibiti,TZ,2019-08-26 17:26:27,-7.72,38.94,72.91,83,39,7.49,scattered clouds,0.0,0
133,Singaparna,ID,2019-08-26 17:26:27,-7.35,108.11,66.79,95,97,2.1,light rain,0.124,0
134,Sur,OM,2019-08-26 17:26:28,22.57,59.53,84.61,53,24,7.74,few clouds,0.0,0
135,Rio Gallegos,AR,2019-08-26 17:26:28,-51.62,-69.22,51.8,29,40,27.51,scattered clouds,0.0,0
136,Tuktoyaktuk,CA,2019-08-26 17:26:28,69.44,-133.03,44.6,93,90,6.93,light rain,0.0,0
137,Redwood City,US,2019-08-26 17:26:29,37.49,-122.23,79.0,77,5,3.36,clear sky,0.0,0
138,Katobu,ID,2019-08-26 17:26:29,-4.94,122.53,68.05,92,80,3.8,broken clouds,0.0,0
139,Saint-Francois,FR,2019-08-26 17:26:29,46.42,3.91,91.4,22,0,2.24,clear sky,0.0,0
140,Hithadhoo,MV,2019-08-26 17:26:30,-0.6,73.08,82.63,74,87,7.61,overcast clouds,0.0,0
141,Tottori,JP,2019-08-26 17:26:01,35.5,134.23,71.47,74,55,4.09,broken clouds,0.0,0
142,Gamba,CN,2019-08-26 17:26:30,28.28,88.52,46.09,52,53,4.61,broken clouds,0.0,0
143,Nhulunbuy,AU,2019-08-26 17:26:30,-12.18,136.78,66.2,93,21,1.12,few clouds,0.0,0
144,Pimentel,BR,2019-08-26 17:26:31,-3.7,-45.5,93.07,38,57,4.7,broken clouds,0.0,0
145,Meulaboh,ID,2019-08-26 17:26:31,4.14,96.13,81.19,79,100,5.84,light rain,0.25,0
146,Krasnoarmeyskoye,RU,2019-08-26 17:26:31,51.2,45.92,66.99,38,0,1.99,clear sky,0.0,0
147,Kiunga,PG,2019-08-26 17:26:32,-6.12,141.3,70.93,98,98,2.64,light rain,0.187,0
148,New Norfolk,AU,2019-08-26 17:26:32,-42.78,147.06,50.0,66,75,6.93,broken clouds,0.0,0
149,Chuy,UY,2019-08-26 17:24:10,-33.69,-53.46,58.87,89,100,3.76,overcast clouds,0.0,0
150,Ancud,CL,2019-08-26 17:26:33,-41.87,-73.83,48.2,61,40,14.99,scattered clouds,0.0,0
151,Cabo San Lucas,MX,2019-08-26 17:21:45,22.89,-109.91,97.0,62,75,18.34,broken clouds,0.0,0
152,Makakilo City,US,2019-08-26 17:25:58,21.35,-158.09,80.6,94,90,3.36,shower rain,0.0,0
153,Mount Isa,AU,2019-08-26 17:26:34,-20.73,139.49,60.8,31,29,13.87,scattered clouds,0.0,0
154,Vao,EE,2019-08-26 17:26:34,59.1,26.19,62.11,86,93,9.22,overcast clouds,0.0,0
155,Bethel,US,2019-08-26 17:26:34,60.79,-161.76,51.8,87,90,3.36,overcast clouds,0.0,0
156,Kolpashevo,RU,2019-08-26 17:26:34,58.31,82.9,58.69,68,91,12.77,overcast clouds,0.0,0
157,Victoria,BN,2019-08-26 17:22:35,5.28,115.24,77.0,94,90,2.24,light rain,0.0,0
158,Tefe,BR,2019-08-26 17:26:35,-3.35,-64.71,87.8,66,40,6.93,scattered clouds,0.0,0
159,Garowe,SO,2019-08-26 17:26:35,8.41,48.48,84.25,38,69,11.86,broken clouds,0.0,0
160,Rovinj,HR,2019-08-26 17:26:36,45.08,13.64,82.99,61,0,8.05,clear sky,0.0,0
161,Chokurdakh,RU,2019-08-26 17:26:36,70.62,147.9,40.69,88,100,10.29,light rain,0.125,0
162,Horadiz,AZ,2019-08-26 17:26:36,39.45,47.33,80.6,51,0,19.46,clear sky,0.0,0
163,Preobrazheniye,RU,2019-08-26 17:26:36,42.9,133.91,60.67,99,90,1.72,overcast clouds,0.0,0
164,Mehamn,NO,2019-08-26 17:26:37,71.03,27.85,51.8,87,75,2.24,light intensity drizzle,0.0,0
165,Hami,CN,2019-08-26 17:26:37,42.84,93.51,76.33,21,0,5.75,clear sky,0.0,0
166,Hambantota,LK,2019-08-26 17:26:37,6.12,81.12,81.55,82,100,15.1,light rain,0.125,0
167,Oktyabrskoye,RU,2019-08-26 17:26:38,56.73,85.44,59.0,81,0,2.24,clear sky,0.0,0
168,Impfondo,CD,2019-08-26 17:26:38,1.62,18.06,73.99,78,18,1.66,few clouds,0.0,0
169,Ahipara,NZ,2019-08-26 17:26:38,-35.17,173.16,44.01,100,73,13.76,broken clouds,0.0,0
170,Iqaluit,CA,2019-08-26 17:26:38,63.75,-68.52,46.4,87,90,2.24,light rain,0.0,0
171,San Policarpo,PH,2019-08-26 17:26:39,12.18,125.51,75.61,87,100,13.38,moderate rain,4.312,0
172,Saldanha,PT,2019-08-26 17:26:39,41.42,-6.55,74.71,51,84,5.73,broken clouds,0.0,0
173,Marysville,US,2019-08-26 17:26:39,48.05,-122.18,66.99,67,1,4.7,clear sky,0.0,0
174,Itoman,JP,2019-08-26 17:26:39,26.12,127.67,84.2,79,20,3.36,few clouds,0.0,0
175,Nanortalik,GL,2019-08-26 17:26:40,60.14,-45.24,46.99,55,1,6.24,clear sky,0.0,0
176,Bauta,CU,2019-08-26 17:26:40,22.98,-82.55,89.6,62,40,5.82,scattered clouds,0.0,0
177,Gat,SN,2019-08-26 17:26:40,14.69,-16.54,89.6,62,75,11.86,broken clouds,0.0,0
178,Norman Wells,CA,2019-08-26 17:26:40,65.28,-126.83,50.0,87,75,3.49,broken clouds,0.0,0
179,Portel,BR,2019-08-26 17:26:41,-1.94,-50.82,94.69,37,64,7.52,broken clouds,0.0,0
180,Kruisfontein,ZA,2019-08-26 17:26:41,-34.0,24.73,54.37,72,78,17.94,broken clouds,0.0,0
181,Barao De Melgaco,BR,2019-08-26 17:22:45,-16.19,-55.97,96.8,22,18,6.93,few clouds,0.0,0
182,Dukat,AL,2019-08-26 17:26:41,40.25,19.57,84.99,43,42,5.79,scattered clouds,0.0,0
183,Balkanabat,TM,2019-08-26 17:26:42,39.51,54.36,87.85,18,0,13.2,clear sky,0.0,0
184,Bambous Virieux,MU,2019-08-26 17:26:42,-20.34,57.76,72.0,60,75,11.41,broken clouds,0.0,0
185,Nishihara,JP,2019-08-26 17:26:42,35.74,139.53,77.0,88,75,6.93,broken clouds,0.0,0
186,Comodoro Rivadavia,AR,2019-08-26 17:26:42,-45.87,-67.48,57.2,24,20,32.21,few clouds,0.0,0
187,Ribas Do Rio Pardo,BR,2019-08-26 17:26:43,-20.45,-53.76,94.69,13,33,5.32,scattered clouds,0.0,0
188,Beira,ES,2019-08-26 17:26:41,43.2,-8.36,78.01,78,20,8.05,few clouds,0.0,0
189,Garmsar,IR,2019-08-26 17:26:43,35.22,52.34,71.83,38,0,6.58,clear sky,0.0,0
190,Perevolotskiy,RU,2019-08-26 17:26:44,51.88,54.19,52.39,71,28,5.39,scattered clouds,0.0,0
191,Luquillo,PR,2019-08-26 17:25:13,18.37,-65.72,91.99,66,1,11.41,haze,0.0,0
192,Cabedelo,BR,2019-08-26 17:26:44,-6.97,-34.84,80.6,69,75,19.46,broken clouds,0.0,0
193,Ewa Beach,US,2019-08-26 17:26:45,21.32,-158.01,80.6,94,90,3.36,shower rain,0.0,0
194,Inhumas,BR,2019-08-26 17:26:45,-16.36,-49.5,89.6,22,20,8.05,few clouds,0.0,0
195,Broken Hill,AU,2019-08-26 17:26:45,-31.97,141.45,42.8,60,6,10.29,clear sky,0.0,0
196,Huntsville,US,2019-08-26 17:25:47,34.73,-86.59,72.0,94,90,12.75,moderate rain,0.0,0
197,Alofi,NU,2019-08-26 17:26:46,-19.06,-169.92,71.6,78,90,13.87,overcast clouds,0.0,0
198,Veinticinco De Mayo,AR,2019-08-26 17:26:46,-27.38,-54.75,70.0,64,100,1.99,overcast clouds,0.0,0
199,Youghal,IE,2019-08-26 17:26:46,51.95,-7.85,64.99,82,75,10.29,broken clouds,0.0,0
200,Mogadishu,SO,2019-08-26 17:26:46,2.04,45.34,75.79,78,14,16.11,few clouds,0.0,0
201,Nyrob,RU,2019-08-26 17:26:47,60.74,56.73,38.89,85,19,1.23,few clouds,0.0,0
202,Qaanaaq,GL,2019-08-26 17:26:47,77.48,-69.36,35.11,94,100,7.58,overcast clouds,0.0,0
203,Aswan,EG,2019-08-26 17:26:47,24.09,32.9,98.6,17,0,10.29,clear sky,0.0,0
204,Rengo,CL,2019-08-26 17:22:41,-34.41,-70.86,60.8,59,100,5.82,haze,0.0,0
205,Buluang,PH,2019-08-26 17:26:48,10.47,123.98,78.8,88,90,4.7,light rain,0.0,0
206,Talara,PE,2019-08-26 17:26:48,-4.58,-81.27,62.6,290,0,11.41,clear sky,0.0,0
207,Hibbing,US,2019-08-26 17:26:48,47.43,-92.94,61.0,100,90,9.17,heavy intensity rain,0.0,0
208,Mar Del Plata,AR,2019-08-26 17:26:49,-46.43,-67.52,51.13,20,20,35.66,few clouds,0.0,0
209,Berlevag,NO,2019-08-26 17:26:49,70.86,29.09,51.8,87,75,11.41,broken clouds,0.0,0
210,Kroonstad,ZA,2019-08-26 17:26:50,-27.65,27.24,66.0,20,0,1.01,clear sky,0.0,0
211,Champerico,MX,2019-08-26 17:26:50,16.38,-93.6,87.8,55,75,9.17,broken clouds,0.0,0
212,Te Anau,NZ,2019-08-26 17:26:50,-45.41,167.72,38.71,87,65,6.2,broken clouds,0.0,0
213,Kodiak,US,2019-08-26 17:26:50,39.95,-94.76,68.0,94,75,6.93,moderate rain,0.0,0
214,Xinzhi,TW,2019-08-26 17:26:51,22.54,120.62,82.99,88,20,4.7,few clouds,0.0,0
215,Barrow,AR,2019-08-26 17:26:51,-38.31,-60.23,71.47,50,83,8.37,broken clouds,0.0,0
216,Agadez,NE,2019-08-26 17:26:51,16.97,7.99,86.0,62,1,10.74,thunderstorm,0.0,0
217,Sivas,TR,2019-08-26 17:26:52,39.75,37.01,59.0,77,75,4.7,broken clouds,0.0,0
218,Seredeyskiy,RU,2019-08-26 17:26:52,54.05,35.23,58.51,81,18,4.34,few clouds,0.0,0
219,Roald,NO,2019-08-26 17:26:52,62.58,6.12,78.8,50,0,11.41,clear sky,0.0,0
220,Kununurra,AU,2019-08-26 17:26:53,-15.77,128.74,66.2,82,6,7.54,clear sky,0.0,0
221,Atar,MR,2019-08-26 17:26:53,20.52,-13.05,95.95,33,44,13.38,scattered clouds,0.0,0
222,Jashpurnagar,IN,2019-08-26 17:26:53,22.88,84.14,70.93,98,100,3.58,light rain,0.875,0
223,Anshun,CN,2019-08-26 17:26:54,26.25,105.93,64.99,86,22,3.44,few clouds,0.0,0
224,Nikolskoye,RU,2019-08-26 17:26:54,59.7,30.79,66.2,77,0,6.71,clear sky,0.0,0
225,Douentza,ML,2019-08-26 17:26:54,15.01,-2.95,85.33,57,59,6.06,light rain,0.874,0
226,Khaniotis,GR,2019-08-26 17:26:54,40.0,23.58,88.0,44,0,0.69,clear sky,0.0,0
227,Coquimbo,CL,2019-08-26 17:26:55,-29.95,-71.34,66.2,52,0,12.75,clear sky,0.0,0
228,Kostomuksha,RU,2019-08-26 17:26:55,64.59,30.6,53.83,86,59,5.19,broken clouds,0.0,0
229,Pulaski,US,2019-08-26 17:26:55,37.05,-80.78,73.0,68,90,6.93,overcast clouds,0.0,0
230,Tiksi,RU,2019-08-26 17:24:04,71.64,128.87,43.03,94,100,7.54,overcast clouds,0.0,0
231,Esperance,AU,2019-08-26 17:26:55,-33.86,121.89,46.4,81,0,14.99,clear sky,0.0,0
232,Sumoto,JP,2019-08-26 17:26:56,34.35,134.9,77.0,78,33,3.36,scattered clouds,0.0,0
233,Sinnamary,GF,2019-08-26 17:26:56,5.38,-52.96,82.99,76,0,22.03,clear sky,0.0,0
234,Dauriya,RU,2019-08-26 17:26:56,49.93,116.85,49.69,89,49,5.7,scattered clouds,0.0,0
235,Tala,MX,2019-08-26 17:26:56,20.65,-103.7,79.0,64,75,2.1,broken clouds,0.0,0
236,Carolina,PR,2019-08-26 17:25:00,18.38,-65.96,91.99,62,20,19.46,haze,0.0,0
237,Tortoli,IT,2019-08-26 17:26:57,39.93,9.66,86.0,62,40,5.82,scattered clouds,0.0,0
238,Policoro,IT,2019-08-26 17:26:57,40.21,16.68,89.01,70,40,6.93,scattered clouds,0.0,0
239,Uyemskiy,RU,2019-08-26 17:26:57,64.47,40.85,55.4,93,90,8.95,light intensity shower rain,0.0,0
240,Farmington,US,2019-08-26 17:26:58,36.73,-108.21,86.0,20,1,12.75,clear sky,0.0,0
241,Ahuimanu,US,2019-08-26 17:26:58,21.44,-157.84,80.6,78,75,9.17,shower rain,0.0,0
242,Ponta Do Sol,BR,2019-08-26 17:26:58,-20.63,-46.0,77.77,35,17,7.52,few clouds,0.0,0
243,Ust-Maya,RU,2019-08-26 17:26:59,60.42,134.54,49.51,83,1,5.46,clear sky,0.0,0
244,Tasiilaq,GL,2019-08-26 17:26:59,65.61,-37.64,46.4,70,40,19.46,scattered clouds,0.0,0
245,Sobotin,CZ,2019-08-26 17:27:00,50.01,17.09,78.01,84,21,5.82,light rain,2.375,0
246,Ilulissat,GL,2019-08-26 17:25:26,69.22,-51.1,42.8,52,20,5.82,few clouds,0.0,0
247,Caravelas,BR,2019-08-26 17:24:41,-17.73,-39.27,74.53,70,50,11.45,light rain,0.5,0
248,Bella Union,CO,2019-08-26 17:23:11,8.5,-73.35,81.55,66,96,3.96,light rain,0.312,0
249,Kemi,FI,2019-08-26 17:27:00,65.74,24.56,64.4,59,0,4.7,clear sky,0.0,0
250,Fairview,CA,2019-08-26 17:27:01,56.07,-118.38,55.99,71,75,9.17,broken clouds,0.0,0
251,Sao Joao Da Barra,BR,2019-08-26 17:22:45,-21.64,-41.05,75.2,53,75,9.17,broken clouds,0.0,0
252,Clyde River,CA,2019-08-26 17:27:01,70.47,-68.59,46.4,81,75,16.11,broken clouds,0.0,0
253,East London,ZA,2019-08-26 17:27:01,-33.02,27.91,62.6,77,40,13.87,scattered clouds,0.0,0
254,Port Lincoln,AU,2019-08-26 17:27:02,-34.72,135.86,54.91,65,1,9.95,clear sky,0.0,0
255,Havre-Saint-Pierre,CA,2019-08-26 17:27:02,50.23,-63.6,71.6,53,1,8.05,clear sky,0.0,0
256,Hasaki,JP,2019-08-26 17:22:14,35.73,140.83,73.4,94,75,6.93,broken clouds,0.0,0
257,San Jose De Rio Tinto,HN,2019-08-26 17:27:03,14.93,-85.7,84.25,46,28,5.55,scattered clouds,0.0,0
258,Colesberg,ZA,2019-08-26 17:27:03,-30.72,25.1,56.71,18,0,10.07,clear sky,0.0,0
259,Marawi,PH,2019-08-26 17:27:03,8.0,124.29,75.0,96,100,3.0,light rain,0.75,0
260,Meadow Lake,CA,2019-08-26 17:27:04,54.13,-108.44,57.2,82,90,12.75,light rain,0.0,0
261,Pareora,NZ,2019-08-26 17:22:06,-44.49,171.21,39.0,88,68,3.69,broken clouds,0.0,0
262,Sao Felix Do Xingu,BR,2019-08-26 17:26:51,-6.64,-51.99,94.69,27,41,4.36,scattered clouds,0.0,0
263,Gashua,NG,2019-08-26 17:27:04,12.87,11.04,84.25,58,63,0.83,broken clouds,0.0,0
264,Inta,RU,2019-08-26 17:27:05,66.04,60.13,35.11,81,65,3.36,broken clouds,0.0,0
265,Chicama,PE,2019-08-26 17:27:05,-7.84,-79.15,66.2,72,75,9.17,broken clouds,0.0,0
266,Rognan,NO,2019-08-26 17:27:05,67.1,15.4,55.0,93,75,19.46,light rain,0.0,0
267,Warmbad,DE,2019-08-26 17:27:06,50.67,13.08,82.0,57,40,5.82,scattered clouds,0.0,0
268,Severo-Kurilsk,RU,2019-08-26 17:27:06,50.68,156.12,47.71,97,100,1.36,light rain,0.812,0
269,Tarko-Sale,RU,2019-08-26 17:24:48,64.92,77.78,48.0,84,100,7.94,overcast clouds,0.0,0
270,Bonavista,CA,2019-08-26 17:27:06,48.65,-53.11,62.01,75,0,3.0,clear sky,0.0,0
271,Pisco,PE,2019-08-26 17:27:06,-13.71,-76.2,71.6,30,90,6.93,overcast clouds,0.0,0
272,Goderich,CA,2019-08-26 17:25:08,43.74,-81.71,75.99,91,100,1.99,overcast clouds,0.0,0
273,Kang,BW,2019-08-26 17:27:07,-23.67,22.79,63.19,20,0,6.4,clear sky,0.0,0
274,Nelson Bay,AU,2019-08-26 17:27:07,-32.72,152.14,55.99,93,40,3.36,scattered clouds,0.0,0
275,Bafq,IR,2019-08-26 17:27:07,31.6,55.4,69.85,13,0,6.2,clear sky,0.0,0
276,Imeni Zhelyabova,RU,2019-08-26 17:27:08,58.95,36.6,58.33,93,98,7.76,light rain,2.812,0
277,Marienburg,DE,2019-08-26 17:27:08,52.12,9.98,91.4,33,0,9.17,clear sky,0.0,0
278,Vila Velha,BR,2019-08-26 17:27:08,-3.71,-38.6,86.0,51,20,14.99,few clouds,0.0,0
279,Hamilton,CA,2019-08-26 17:27:09,43.26,-79.87,78.01,53,75,17.22,broken clouds,0.0,0
280,Boyolangu,ID,2019-08-26 17:27:09,-8.09,111.9,67.33,93,84,4.72,broken clouds,0.0,0
281,Burnie,AU,2019-08-26 17:27:09,-41.05,145.91,45.0,88,64,1.01,broken clouds,0.0,0
282,Melioratorov,RU,2019-08-26 17:27:10,57.21,65.61,53.01,100,90,15.66,light intensity shower rain,0.0,0
283,South River,US,2019-08-26 17:27:10,40.45,-74.39,75.0,46,40,9.17,scattered clouds,0.0,0
284,Tsybli,UA,2019-08-26 17:27:10,49.99,31.57,75.2,47,0,6.71,clear sky,0.0,0
285,Bathsheba,BB,2019-08-26 17:27:11,13.22,-59.52,84.2,70,40,21.92,scattered clouds,0.0,0
286,Flin Flon,CA,2019-08-26 17:27:11,54.77,-101.88,59.0,87,75,6.93,light rain,0.0,0
287,Karaton,ID,2019-08-26 17:27:11,-6.34,106.1,80.6,69,20,4.7,haze,0.0,0
288,Belmonte,PT,2019-08-26 17:27:11,40.36,-7.35,81.0,54,84,7.85,moderate rain,5.438,0
289,Isabela,PH,2019-08-26 17:27:12,10.2,122.99,80.29,82,100,12.21,moderate rain,5.563,0
290,Vila Franca Do Campo,PT,2019-08-26 17:27:13,37.72,-25.43,75.2,69,40,9.17,scattered clouds,0.0,0
291,Lyaskelya,RU,2019-08-26 17:27:13,61.77,31.02,56.71,70,100,7.29,overcast clouds,0.0,0
292,Gold Coast,AU,2019-08-26 17:26:23,-28.0,153.41,59.0,93,23,3.02,few clouds,0.0,0
293,Juruti,BR,2019-08-26 17:27:13,-2.16,-56.09,99.73,24,25,6.62,scattered clouds,0.0,0
294,Leh,IN,2019-08-26 17:27:14,34.16,77.58,52.75,32,64,3.09,broken clouds,0.0,0
295,Egvekinot,RU,2019-08-26 17:27:14,66.32,-179.17,49.15,92,61,6.17,broken clouds,0.0,0
296,Mount Gambier,AU,2019-08-26 17:27:14,-37.83,140.78,41.0,93,5,8.05,clear sky,0.0,0
297,Lorengau,PG,2019-08-26 17:27:15,-2.02,147.27,78.13,86,97,6.62,light rain,1.313,0
298,Rairangpur,IN,2019-08-26 17:27:15,22.27,86.18,75.79,92,12,6.46,few clouds,0.0,0
299,Yar-Sale,RU,2019-08-26 17:27:15,66.83,70.83,39.25,71,100,4.83,overcast clouds,0.0,0
300,Kenora,CA,2019-08-26 17:27:16,49.76,-94.48,66.2,82,100,4.7,mist,0.0,0
301,Husavik,CA,2019-08-26 17:24:13,50.56,-96.99,69.01,73,93,5.99,light rain,0.188,0
302,Upernavik,GL,2019-08-26 17:27:16,72.79,-56.15,40.15,61,100,6.13,overcast clouds,0.0,0
303,Ilheus,BR,2019-08-26 17:27:16,-14.79,-39.05,80.6,69,40,10.29,scattered clouds,0.0,0
304,Jaisinghnagar,IN,2019-08-26 17:27:17,23.63,78.57,72.73,95,100,9.55,light rain,1.624,0
305,Samfya,ZM,2019-08-26 17:27:17,-11.37,29.56,73.27,32,73,5.5,broken clouds,0.0,0
306,Taltal,CL,2019-08-26 17:27:17,-25.41,-70.49,71.65,40,0,6.78,clear sky,0.0,0
307,Ballina,IE,2019-08-26 17:27:17,54.11,-9.15,61.0,87,75,11.41,broken clouds,0.0,0
308,Roccastrada,IT,2019-08-26 17:27:18,43.01,11.17,89.01,69,20,9.17,few clouds,0.0,0
309,Terrace Bay,CA,2019-08-26 17:27:18,48.78,-87.1,66.2,68,90,9.17,overcast clouds,0.0,0
310,Montrose,GB,2019-08-26 17:27:18,56.71,-2.47,71.6,64,20,9.17,few clouds,0.0,0
311,Pandan,PH,2019-08-26 17:27:18,11.72,122.09,81.37,76,100,10.22,moderate rain,9.375,0
312,Vanimo,PG,2019-08-26 17:24:07,-2.67,141.3,81.01,76,99,3.71,overcast clouds,0.0,0
313,Pionerskiy,RU,2019-08-26 17:27:19,61.2,62.86,40.51,92,68,5.35,broken clouds,0.0,0
314,Calvinia,ZA,2019-08-26 17:27:19,-31.47,19.78,45.01,84,0,6.24,clear sky,0.0,0
315,Batemans Bay,AU,2019-08-26 17:26:45,-35.71,150.18,42.01,88,0,1.99,clear sky,0.0,0
316,Nioro,GM,2019-08-26 17:27:20,13.79,-15.05,79.39,83,99,8.59,moderate rain,6.375,0
317,Grindavik,IS,2019-08-26 17:27:20,63.84,-22.43,53.6,87,75,17.22,light intensity drizzle,0.0,0
318,Sarankhola,BD,2019-08-26 17:27:20,22.31,89.79,80.83,87,47,4.72,light rain,0.812,0
319,Berezanka,UA,2019-08-26 17:27:20,46.86,31.39,77.95,30,30,8.68,scattered clouds,0.0,0
320,Koumac,NC,2019-08-26 17:27:21,-20.56,164.28,69.67,68,1,4.56,clear sky,0.0,0
321,Nago,IT,2019-08-26 17:27:21,45.88,10.89,84.99,48,0,6.93,clear sky,0.0,0
322,Vila Do Maio,CV,2019-08-26 17:27:21,15.13,-23.22,84.2,70,75,8.05,broken clouds,0.0,0
323,Aksu,KZ,2019-08-26 17:27:22,52.04,76.93,69.8,52,0,11.18,clear sky,0.0,0
324,Velizh,RU,2019-08-26 17:27:22,55.61,31.2,61.93,84,83,4.34,broken clouds,0.0,0
325,Porto Velho,BR,2019-08-26 17:27:22,-8.75,-63.87,89.6,52,20,3.36,smoke,0.0,0
326,Puqi,CN,2019-08-26 17:27:22,29.72,113.88,80.47,84,99,1.36,overcast clouds,0.0,0
327,Soubre,CI,2019-08-26 17:27:23,5.79,-6.61,72.91,96,95,5.44,moderate rain,5.687,0
328,Marquette,US,2019-08-26 17:27:23,46.54,-87.4,69.8,77,90,8.05,light rain,0.0,0
329,Guerrero Negro,MX,2019-08-26 17:27:23,27.97,-114.04,72.01,91,0,5.91,clear sky,0.0,0
330,Nara,JP,2019-08-26 17:27:23,34.68,135.8,77.0,78,21,3.36,few clouds,0.0,0
331,Santa Marta,CO,2019-08-26 17:27:24,11.24,-74.21,89.6,70,40,5.82,scattered clouds,0.0,0
332,Nisia Floresta,BR,2019-08-26 17:27:24,-6.09,-35.21,84.2,61,40,23.04,scattered clouds,0.0,0
333,Rio Grande,BR,2019-08-26 17:27:24,-32.03,-52.1,69.8,64,0,4.7,clear sky,0.0,0
334,Soligalich,RU,2019-08-26 17:27:24,59.08,42.29,56.17,94,100,9.55,light rain,1.0,0
335,Kachug,RU,2019-08-26 17:27:25,53.96,105.89,48.07,96,100,4.03,overcast clouds,0.0,0
336,Biak,ID,2019-08-26 17:27:25,-0.91,122.88,59.23,97,78,4.94,broken clouds,0.0,0
337,Skibbereen,IE,2019-08-26 17:27:25,51.55,-9.27,60.8,82,75,10.29,broken clouds,0.0,0
338,Paptalaya,HN,2019-08-26 17:27:26,15.5,-84.32,89.6,62,40,9.17,haze,0.0,0
339,Beroroha,MG,2019-08-26 17:27:26,-21.68,45.17,64.99,70,0,4.5,clear sky,0.0,0
340,Krasnoarmeysk,RU,2019-08-26 17:27:26,56.12,38.15,70.0,63,0,11.18,clear sky,0.0,0
341,Modasa,IN,2019-08-26 17:27:26,23.47,73.3,74.53,95,100,14.74,moderate rain,5.562,0
342,Los Llanos De Aridane,ES,2019-08-26 17:25:41,28.66,-17.92,77.0,73,75,13.87,broken clouds,0.0,0
343,Paamiut,GL,2019-08-26 17:27:27,61.99,-49.67,42.31,81,100,24.92,overcast clouds,0.0,0
344,Belyy Yar,RU,2019-08-26 17:27:27,53.6,91.39,53.6,93,0,4.47,clear sky,0.0,0
345,Santa Rosa,AR,2019-08-26 17:27:28,-36.62,-64.29,76.33,40,67,13.24,broken clouds,0.0,0
346,Lahij,YE,2019-08-26 17:27:28,13.06,44.88,90.19,43,24,9.53,few clouds,0.0,0
347,Nizwa,OM,2019-08-26 17:27:28,22.93,57.53,89.29,25,87,6.13,overcast clouds,0.0,0
348,Geraldton,CA,2019-08-26 17:27:28,49.72,-86.95,66.2,77,75,12.75,broken clouds,0.0,0
349,Zirandaro,MX,2019-08-26 17:27:29,18.45,-100.98,88.93,62,98,1.66,overcast clouds,0.0,0
350,Toktogul,KG,2019-08-26 17:27:29,41.87,72.95,59.77,39,0,6.73,clear sky,0.0,0
351,Trofors,NO,2019-08-26 17:27:29,65.54,13.39,69.8,87,20,2.24,few clouds,0.0,0
352,Tanout,NE,2019-08-26 17:27:30,14.97,8.88,88.39,43,99,6.89,overcast clouds,0.0,0
353,Phonhong,LA,2019-08-26 17:27:30,18.5,102.42,78.8,100,75,2.24,mist,0.0,0
354,Camacha,PT,2019-08-26 17:27:30,33.08,-16.33,73.4,60,20,13.87,few clouds,0.0,0
355,Hindoria,IN,2019-08-26 17:27:31,23.9,79.57,76.51,86,36,3.78,light rain,0.813,0
356,Axim,GH,2019-08-26 17:26:29,4.87,-2.24,75.97,87,32,10.27,scattered clouds,0.0,0
357,Dunedin,NZ,2019-08-26 17:27:31,-45.87,170.5,45.0,53,15,11.01,few clouds,0.0,0
358,Hay River,CA,2019-08-26 17:27:31,60.82,-115.79,59.0,82,75,4.7,broken clouds,0.0,0
359,Santa Cecilia,CR,2019-08-26 17:27:32,9.85,-84.31,84.2,51,0,8.05,clear sky,0.0,0
360,Sharjah,AE,2019-08-26 17:27:32,25.36,55.39,96.8,56,0,5.82,clear sky,0.0,0
361,Denpasar,ID,2019-08-26 17:27:32,-8.65,115.22,75.2,88,20,10.29,few clouds,0.0,0
362,San Ramon,NI,2019-08-26 17:27:33,12.92,-85.84,78.8,61,40,4.7,scattered clouds,0.0,0
363,Souris,CA,2019-08-26 17:27:33,46.36,-62.25,66.2,55,90,8.05,overcast clouds,0.0,0
364,Ambilobe,MG,2019-08-26 17:27:33,-13.19,49.05,73.63,63,57,14.52,broken clouds,0.0,0
365,Pelham,US,2019-08-26 17:27:34,42.73,-71.32,75.2,40,20,10.29,few clouds,0.0,0
366,Zaranj,AF,2019-08-26 17:27:34,30.95,61.86,87.8,20,0,13.87,clear sky,0.0,0
367,Saint George,GR,2019-08-26 17:27:34,39.45,22.34,88.0,35,20,5.82,few clouds,0.0,0
368,Chibuto,MZ,2019-08-26 17:27:34,-24.69,33.53,72.91,53,0,7.4,clear sky,0.0,0
369,Vestmannaeyjar,IS,2019-08-26 17:27:35,63.44,-20.27,51.8,100,90,23.04,light rain,0.0,0
370,Tazovskiy,RU,2019-08-26 17:24:27,67.47,78.7,40.51,88,61,9.01,broken clouds,0.0,0
371,North Bend,US,2019-08-26 17:27:35,43.41,-124.22,68.0,68,1,6.93,clear sky,0.0,0
372,Vostok,RU,2019-08-26 17:27:36,46.45,135.83,52.57,87,0,3.91,clear sky,0.0,0
373,Flinders,AU,2019-08-26 17:27:36,-34.58,150.85,55.99,93,90,8.05,overcast clouds,0.0,0
374,Lusambo,CD,2019-08-26 17:27:36,-4.97,23.44,75.97,59,88,2.86,overcast clouds,0.0,0
375,Moche,PE,2019-08-26 17:27:36,-8.17,-79.01,66.2,72,75,9.17,broken clouds,0.0,0
376,Tuatapere,NZ,2019-08-26 17:27:37,-46.13,167.69,48.61,75,100,24.07,light rain,0.125,0
377,Wattegama,LK,2019-08-26 17:27:37,7.35,80.68,73.99,79,81,4.81,broken clouds,0.0,0
378,Samana,EC,2019-08-26 17:27:37,0.12,-76.97,78.8,88,75,11.41,broken clouds,0.0,0
379,Perieti,RO,2019-08-26 17:27:38,44.4,24.55,87.01,42,0,14.99,clear sky,0.0,0
380,Sinnar,IN,2019-08-26 17:27:38,19.85,74.0,70.75,91,100,7.78,light rain,0.124,0
381,Gulfport,US,2019-08-26 17:25:36,30.37,-89.09,78.8,83,90,12.75,moderate rain,0.0,0
382,Iquitos,PE,2019-08-26 17:27:38,-3.75,-73.25,42.8,319,75,3.36,broken clouds,0.0,0
383,Kahului,US,2019-08-26 17:24:09,20.89,-156.47,78.8,78,40,10.29,light rain,0.0,0
384,Gejiu,CN,2019-08-26 17:27:39,23.36,103.16,63.55,86,100,1.86,light rain,0.562,0
385,Dakar,SN,2019-08-26 17:27:39,14.69,-17.45,82.4,88,75,4.7,light rain,0.0,0
386,Adrar,DZ,2019-08-26 17:27:39,27.87,-0.29,111.2,9,49,3.36,scattered clouds,0.0,0
387,Japura,ID,2019-08-26 17:27:40,-0.42,102.29,74.53,96,83,3.31,moderate rain,8.5,0
388,Sambava,MG,2019-08-26 17:27:40,-14.27,50.17,64.27,96,52,3.11,broken clouds,0.0,0
389,Kaputa,ZM,2019-08-26 17:27:40,-8.47,29.66,74.89,37,6,3.47,clear sky,0.0,0
390,Sao Jose Da Coroa Grande,BR,2019-08-26 17:27:40,-8.9,-35.15,76.69,80,25,11.83,light rain,1.126,0
391,Kazachinskoye,RU,2019-08-26 17:27:41,57.69,93.28,49.87,87,76,2.24,broken clouds,0.0,0
392,Qiqihar,CN,2019-08-26 17:27:41,47.35,123.91,56.53,93,42,6.76,scattered clouds,0.0,0
393,Zheleznodorozhnyy,RU,2019-08-26 17:27:41,55.75,38.0,66.2,59,0,4.47,clear sky,0.0,0
394,Formosa,BR,2019-08-26 17:27:41,-15.55,-47.33,82.45,28,36,9.69,scattered clouds,0.0,0
395,Dubbo,AU,2019-08-26 17:27:42,-32.25,148.6,33.8,74,35,4.7,scattered clouds,0.0,0
396,Waipawa,NZ,2019-08-26 17:27:42,-39.94,176.59,45.0,87,16,2.8,light rain,0.188,0
397,Presidencia Roque Saenz Pena,AR,2019-08-26 17:27:42,-26.79,-60.44,83.35,49,12,9.71,few clouds,0.0,0
398,Oranjemund,ZA,2019-08-26 17:27:43,-28.55,16.43,56.17,82,0,21.83,clear sky,0.0,0
399,Gawler,AU,2019-08-26 17:27:43,-34.6,138.75,44.01,87,20,6.93,few clouds,0.0,0
400,Campo Maior,BR,2019-08-26 17:27:43,-4.83,-42.16,98.11,22,0,6.85,clear sky,0.0,0
401,Shibganj,BD,2019-08-26 17:27:44,25.01,89.36,83.17,82,1,6.44,light rain,0.875,0
402,Rawson,AR,2019-08-26 17:26:40,-43.3,-65.11,58.51,31,65,24.74,broken clouds,0.0,0
403,Mujiayingzi,CN,2019-08-26 17:27:44,42.12,118.78,55.45,83,0,7.76,clear sky,0.0,0
404,Tome,JP,2019-08-26 17:27:45,38.69,141.2,62.83,96,95,0.83,overcast clouds,0.0,0
405,Filadelfia,PY,2019-08-26 17:27:45,-22.35,-60.04,97.57,23,14,10.74,few clouds,0.0,0
406,Hovd,NO,2019-08-26 17:27:45,63.83,10.7,71.6,64,0,4.7,clear sky,0.0,0
407,Pangody,RU,2019-08-26 17:27:45,65.85,74.49,44.29,61,100,4.09,overcast clouds,0.0,0
408,Isangel,VU,2019-08-26 17:27:46,-19.55,169.27,71.83,71,54,10.42,light rain,0.126,0
409,San Jose,HN,2019-08-26 17:27:46,14.25,-87.96,87.49,30,33,4.05,scattered clouds,0.0,0
410,Kavaratti,IN,2019-08-26 17:27:46,10.57,72.64,79.75,84,100,26.87,moderate rain,4.688,0
411,Chapais,CA,2019-08-26 17:27:46,49.78,-74.86,73.4,40,1,6.93,clear sky,0.0,0
412,Zhigansk,RU,2019-08-26 17:27:47,66.77,123.37,61.75,53,99,6.53,overcast clouds,0.0,0
413,Noyabrsk,RU,2019-08-26 17:27:47,63.2,75.45,44.29,77,91,12.8,overcast clouds,0.0,0
414,Walvis Bay,NA,2019-08-26 17:27:48,-22.95,14.51,60.01,84,0,10.0,clear sky,0.0,0
415,Gulu,UG,2019-08-26 17:27:01,2.77,32.3,66.43,92,98,2.37,light rain,2.063,0
416,Mizdah,LY,2019-08-26 17:27:48,31.45,12.98,82.63,30,0,16.64,clear sky,0.0,0
417,Hualmay,PE,2019-08-26 17:27:48,-11.1,-77.61,58.69,88,40,11.43,scattered clouds,0.0,0
418,Ishigaki,JP,2019-08-26 17:27:48,24.34,124.16,82.63,82,7,10.94,clear sky,0.0,0
419,Kawalu,ID,2019-08-26 17:27:49,-7.38,108.21,66.79,95,97,2.1,light rain,0.124,0
420,Grand-Santi,GF,2019-08-26 17:27:49,4.27,-54.38,95.05,36,9,4.18,clear sky,0.0,0
421,Komsomolskiy,RU,2019-08-26 17:27:49,67.55,63.78,38.35,92,90,6.58,light rain,0.563,0
422,Desbiens,CA,2019-08-26 17:27:49,48.42,-71.95,78.01,60,20,5.82,few clouds,0.0,0
423,Waitati,NZ,2019-08-26 17:27:50,-45.75,170.57,45.0,53,15,11.01,few clouds,0.0,0
424,Baijiantan,CN,2019-08-26 17:27:50,45.63,85.18,72.01,20,0,2.89,clear sky,0.0,0
425,Petropavlovsk-Kamchatskiy,RU,2019-08-26 17:27:50,53.05,158.65,51.8,100,75,2.57,broken clouds,0.0,0
426,Nantucket,US,2019-08-26 17:24:37,41.28,-70.1,71.01,68,40,21.92,scattered clouds,0.0,0
427,Tabligbo,TG,2019-08-26 17:27:51,6.59,1.5,80.6,78,20,16.11,few clouds,0.0,0
428,Artyom,RU,2019-08-26 17:27:51,43.36,132.19,66.2,100,75,6.71,broken clouds,0.0,0
429,Bang Saphan,TH,2019-08-26 17:27:51,11.21,99.51,80.65,76,100,9.13,overcast clouds,0.0,0
430,Amapa,HN,2019-08-26 17:27:51,15.09,-87.97,98.01,49,20,6.93,few clouds,0.0,0
431,Northam,AU,2019-08-26 17:27:52,-31.65,116.67,51.8,66,0,4.7,clear sky,0.0,0
432,Lagoa,PT,2019-08-26 17:27:52,37.14,-8.45,80.01,54,20,16.11,few clouds,0.0,0
433,Aleksandrov Gay,RU,2019-08-26 17:27:52,50.14,48.57,63.19,45,0,7.72,clear sky,0.0,0
434,Keti Bandar,PK,2019-08-26 17:27:53,24.14,67.45,80.65,79,83,15.26,broken clouds,0.0,0
435,Ust-Nera,RU,2019-08-26 17:27:53,64.57,143.24,43.39,92,97,5.32,overcast clouds,0.0,0
436,Danilov,RU,2019-08-26 17:27:53,58.19,40.17,62.6,77,0,6.71,clear sky,0.0,0
437,Suksun,RU,2019-08-26 17:27:54,57.15,57.4,44.29,81,37,2.51,scattered clouds,0.0,0
438,Tucumcari,US,2019-08-26 17:27:54,35.17,-103.73,95.0,19,1,19.46,clear sky,0.0,0
439,Ulvik,NO,2019-08-26 17:27:54,60.57,6.92,73.4,43,0,13.87,clear sky,0.0,0
440,Luanda,AO,2019-08-26 17:23:20,-8.83,13.24,73.4,88,40,6.93,scattered clouds,0.0,0
441,Saquena,PE,2019-08-26 17:27:55,-4.67,-73.52,91.27,47,33,2.46,scattered clouds,0.0,0
442,Lazaro Cardenas,MX,2019-08-26 17:27:55,28.39,-105.62,93.0,37,5,6.69,clear sky,0.0,0
443,Kushima,JP,2019-08-26 17:27:55,31.5,131.29,73.63,98,100,0.58,light rain,0.875,0
444,Srednekolymsk,RU,2019-08-26 17:27:55,67.46,153.71,48.97,87,96,4.16,overcast clouds,0.0,0
445,Causapscal,CA,2019-08-26 17:27:56,48.35,-67.23,62.01,65,50,11.01,scattered clouds,0.0,0
446,Sidi Ali,DZ,2019-08-26 17:27:56,36.1,0.42,87.31,49,100,8.37,overcast clouds,0.0,0
447,Nemuro,JP,2019-08-26 17:27:56,43.32,145.57,59.95,85,24,6.44,few clouds,0.0,0
448,Sydney,AU,2019-08-26 17:25:17,-33.85,151.22,55.4,93,75,18.34,light intensity shower rain,0.0,0
449,Sanmenxia,CN,2019-08-26 17:27:57,34.77,111.19,67.51,93,100,4.72,moderate rain,4.75,0
450,Svetlogorsk,RU,2019-08-26 17:27:57,53.14,59.15,50.0,66,75,13.42,broken clouds,0.0,0
451,College,US,2019-08-26 17:24:01,64.86,-147.8,48.2,93,1,3.36,clear sky,0.0,0
452,Crewe,GB,2019-08-26 17:27:17,53.1,-2.44,82.0,64,9,3.36,clear sky,0.0,0
453,Hokitika,NZ,2019-08-26 17:27:57,-42.72,170.96,43.21,69,0,1.88,clear sky,0.0,0
454,Minas,UY,2019-08-26 17:27:58,-34.38,-55.24,64.4,77,90,8.05,overcast clouds,0.0,0
455,Ylivieska,FI,2019-08-26 17:27:58,64.07,24.53,60.01,77,82,3.0,broken clouds,0.0,0
456,Aranos,NA,2019-08-26 17:27:58,-24.14,19.11,63.19,13,0,6.29,clear sky,0.0,0
457,Khadro,PK,2019-08-26 17:27:59,26.15,68.72,93.2,52,53,9.17,broken clouds,0.0,0
458,Bonfim,GY,2019-08-26 17:27:59,3.36,-59.84,91.27,48,52,9.15,broken clouds,0.0,0
459,Magione,IT,2019-08-26 17:27:59,43.14,12.2,82.4,51,3,3.36,clear sky,0.0,0
460,Longyearbyen,NO,2019-08-26 17:27:59,78.22,15.63,42.8,72,20,4.7,few clouds,0.0,0
461,Bam,IR,2019-08-26 17:28:00,29.11,58.36,57.25,13,0,1.54,clear sky,0.0,0
462,Erzincan,TR,2019-08-26 17:28:00,39.75,39.49,72.0,49,75,13.87,broken clouds,0.0,0
463,Oistins,BB,2019-08-26 17:28:00,13.07,-59.53,84.2,70,40,21.92,scattered clouds,0.0,0
464,Fort Smith,US,2019-08-26 17:24:36,35.39,-94.42,91.99,79,20,6.93,few clouds,0.0,0
465,Novobirilyussy,RU,2019-08-26 17:28:01,56.95,90.69,49.69,81,1,4.38,clear sky,0.0,0
466,Kavieng,PG,2019-08-26 17:28:01,-2.57,150.8,83.35,68,50,1.68,scattered clouds,0.0,0
467,Pachino,IT,2019-08-26 17:28:01,36.72,15.09,86.0,51,20,8.05,few clouds,0.0,0
468,Saint-Pierre,FR,2019-08-26 17:28:01,48.95,4.24,91.99,23,0,3.36,clear sky,0.0,0
469,Potiskum,NG,2019-08-26 17:28:02,11.71,11.08,77.23,77,45,5.35,light rain,1.813,0
470,Pangnirtung,CA,2019-08-26 17:28:02,66.15,-65.72,51.8,76,90,16.11,light rain,0.0,0
471,Jamshedpur,IN,2019-08-26 17:28:02,22.8,86.2,77.41,93,20,3.65,few clouds,0.0,0
472,Progreso,UY,2019-08-26 17:28:02,-34.68,-56.22,66.99,77,75,6.93,broken clouds,0.0,0
473,Merauke,ID,2019-08-26 17:26:58,-8.49,140.4,75.43,84,73,19.75,broken clouds,0.0,0
474,Mahebourg,MU,2019-08-26 17:28:03,-20.41,57.7,72.0,60,75,11.41,broken clouds,0.0,0
475,The Valley,AI,2019-08-26 17:28:03,18.22,-63.06,91.4,74,40,12.75,haze,0.0,0
476,Pauini,BR,2019-08-26 17:28:04,-7.71,-67.0,95.23,38,68,1.66,broken clouds,0.0,0
477,Sola,TZ,2019-08-26 17:28:04,-3.17,33.8,75.79,37,15,11.14,few clouds,0.0,0
478,Hearst,CA,2019-08-26 17:28:04,49.69,-83.67,74.71,46,95,10.92,overcast clouds,0.0,0
479,Ciechocinek,PL,2019-08-26 17:28:05,52.88,18.79,86.0,37,0,10.29,clear sky,0.0,0
480,Rakiv Lis,UA,2019-08-26 17:28:05,51.62,24.92,67.15,76,0,6.38,clear sky,0.0,0
481,Frederick,US,2019-08-26 17:23:12,39.41,-77.41,77.0,50,40,6.93,scattered clouds,0.0,0
482,Laguna,BZ,2019-08-26 17:28:06,16.17,-88.94,89.6,70,20,9.17,few clouds,0.0,0
483,Muli,CN,2019-08-26 17:28:06,28.08,109.56,73.45,95,98,5.17,light rain,1.374,0
484,Mackay,CA,2019-08-26 17:28:06,53.65,-115.58,57.2,50,20,18.34,few clouds,0.0,0
485,Yugorsk,RU,2019-08-26 17:28:06,61.32,63.33,40.87,91,83,6.58,broken clouds,0.0,0
486,Bubaque,GW,2019-08-26 17:28:07,11.28,-15.83,80.11,79,100,13.67,light rain,1.437,0
487,Pangai,TO,2019-08-26 17:26:10,-19.8,-174.35,73.4,56,75,13.87,broken clouds,0.0,0
488,Palmer,AU,2019-08-26 17:25:09,-34.85,139.16,44.01,87,20,6.93,few clouds,0.0,0
489,Sistranda,NO,2019-08-26 17:28:07,63.73,8.83,68.0,68,0,8.05,clear sky,0.0,0
490,San Cristobal,HN,2019-08-26 17:28:08,14.68,-86.92,87.13,40,59,9.08,broken clouds,0.0,0
491,Springfield,US,2019-08-26 17:25:04,37.22,-93.29,86.0,74,90,10.29,light rain,0.0,0
492,Narsaq,GL,2019-08-26 17:28:08,60.91,-46.05,57.2,33,40,4.7,scattered clouds,0.0,0
493,Pasighat,IN,2019-08-26 17:28:09,28.06,95.33,74.89,83,73,2.66,broken clouds,0.0,0
494,Beyneu,KZ,2019-08-26 17:28:09,45.32,55.19,76.33,34,100,10.2,overcast clouds,0.0,0
495,Samarai,PG,2019-08-26 17:28:09,-10.62,150.67,72.37,94,100,2.24,light rain,0.25,0
496,Hofn,IS,2019-08-26 17:28:09,64.25,-15.21,51.8,93,90,24.16,light intensity drizzle rain,0.0,0
497,Atikokan,CA,2019-08-26 17:28:10,48.76,-91.62,60.49,95,100,8.97,light rain,1.125,0
498,Mobaye,CF,2019-08-26 17:28:10,4.33,21.18,71.29,95,19,2.26,light rain,2.062,0
499,Chifeng,CN,2019-08-26 17:28:10,42.27,118.96,57.07,73,5,6.31,clear sky,0.0,0
500,Vung Tau,VN,2019-08-26 17:28:11,10.35,107.08,78.13,89,95,9.46,overcast clouds,0.0,0
501,Tura,RU,2019-08-26 17:28:11,64.27,100.22,49.69,88,96,3.89,light rain,0.25,0
502,Vilyuysk,RU,2019-08-26 17:28:11,63.75,121.63,54.19,74,47,3.49,scattered clouds,0.0,0
503,Mechanicsville,US,2019-08-26 17:28:11,37.62,-77.34,78.01,73,90,5.82,light intensity drizzle,0.0,0
504,Fairbanks,US,2019-08-26 17:23:54,64.84,-147.72,46.4,93,1,3.36,clear sky,0.0,0
505,Roanoke Rapids,US,2019-08-26 17:25:30,36.46,-77.65,75.0,94,90,5.82,light rain,0.0,0
506,Venecia,CO,2019-08-26 17:28:12,4.09,-74.48,66.61,63,41,4.79,light rain,0.562,0
507,Senno,RU,2019-08-26 17:28:13,57.76,27.95,73.4,53,99,6.71,light rain,0.0,0
508,Keetmanshoop,NA,2019-08-26 17:28:13,-26.57,18.15,78.8,9,0,6.93,clear sky,0.0,0
509,Bartica,GY,2019-08-26 17:28:13,6.41,-58.62,93.2,56,75,2.24,broken clouds,0.0,0
510,Viedma,AR,2019-08-26 17:28:13,-40.81,-62.99,50.41,88,100,9.8,moderate rain,6.75,0
511,Quatre Cocos,MU,2019-08-26 17:28:14,-20.21,57.76,72.0,60,75,11.41,broken clouds,0.0,0
512,Benito Juarez,CU,2019-08-26 17:28:14,22.29,-79.63,89.6,52,40,4.7,scattered clouds,0.0,0
513,Matara,BI,2019-08-26 17:28:14,-3.48,29.48,84.2,54,20,2.55,few clouds,0.0,0
514,Syracuse,US,2019-08-26 17:28:15,43.05,-76.15,75.99,37,1,4.7,clear sky,0.0,0
515,Kisangani,CD,2019-08-26 17:28:15,0.52,25.21,78.8,78,75,3.36,broken clouds,0.0,0
516,Illapel,CL,2019-08-26 17:28:15,-31.63,-71.17,65.71,40,0,10.8,clear sky,0.0,0
517,Ushtobe,KZ,2019-08-26 17:28:15,45.25,77.98,76.33,23,0,6.98,clear sky,0.0,0
518,Foumban,CM,2019-08-26 17:28:16,5.73,10.9,64.09,91,32,2.48,light rain,2.75,0
519,Kefamenanu,ID,2019-08-26 17:28:16,-9.45,124.48,61.75,78,20,4.79,few clouds,0.0,0
520,Vardo,US,2019-08-26 17:28:16,39.62,-77.74,77.0,56,20,5.82,few clouds,0.0,0
521,Segou,SN,2019-08-26 17:28:17,12.41,-12.29,77.0,83,75,9.17,broken clouds,0.0,0
522,Port Blair,IN,2019-08-26 17:28:17,11.67,92.75,81.19,84,100,22.28,moderate rain,5.063,0
523,Khani,GE,2019-08-26 17:28:17,41.96,42.96,77.0,88,40,8.05,scattered clouds,0.0,0
524,Severo-Yeniseyskiy,RU,2019-08-26 17:28:17,60.37,93.04,48.07,81,26,2.84,scattered clouds,0.0,0
525,Jieshi,CN,2019-08-26 17:28:17,22.82,115.83,81.0,94,21,3.67,light rain,0.374,0
526,Alfatar,BG,2019-08-26 17:28:18,43.95,27.28,84.99,29,18,1.01,few clouds,0.0,0
527,Udachnyy,RU,2019-08-26 17:28:18,66.42,112.4,59.0,47,40,4.47,scattered clouds,0.0,0
528,Calama,CL,2019-08-26 17:26:19,-22.46,-68.93,77.0,3,0,6.93,clear sky,0.0,0
529,Moron,HT,2019-08-26 17:25:14,18.56,-74.26,84.25,69,2,3.87,clear sky,0.0,0
530,Sheridan,US,2019-08-26 17:28:19,39.65,-105.03,73.99,45,20,5.82,few clouds,0.0,0
531,Chilca,PE,2019-08-26 17:28:19,-13.22,-72.34,64.4,22,20,3.36,few clouds,0.0,0
532,Namatanai,PG,2019-08-26 17:28:19,-3.66,152.44,78.31,83,93,9.98,moderate rain,3.626,0
533,Synya,RU,2019-08-26 17:28:19,65.37,58.04,36.37,78,50,2.24,scattered clouds,0.0,0
534,Jasper,US,2019-08-26 17:24:29,33.83,-87.28,77.0,100,90,8.3,light intensity drizzle,0.0,0
535,Ulladulla,AU,2019-08-26 17:28:20,-35.36,150.48,50.0,93,90,8.05,overcast clouds,0.0,0
536,Coxim,BR,2019-08-26 17:28:20,-18.5,-54.75,107.11,10,28,2.35,scattered clouds,0.0,0
537,Yokadouma,CM,2019-08-26 17:28:21,3.52,15.05,71.11,90,99,1.63,overcast clouds,0.0,0
538,Ternate,PH,2019-08-26 17:28:21,14.29,120.72,78.8,88,75,6.93,broken clouds,0.0,0
539,Bouar,CF,2019-08-26 17:28:21,5.94,15.59,66.79,95,96,1.66,overcast clouds,0.0,0
540,Swan Hill,AU,2019-08-26 17:28:21,-35.34,143.56,40.15,94,6,6.53,clear sky,0.0,0
541,Roma,IT,2019-08-26 17:26:00,41.89,12.48,86.0,58,20,5.82,thunderstorm,0.0,0
542,Osa,RU,2019-08-26 17:28:22,57.28,55.46,50.23,74,100,5.64,overcast clouds,0.0,0
543,Bandarbeyla,SO,2019-08-26 17:28:22,9.49,50.81,77.41,73,55,23.2,broken clouds,0.0,0
544,Juneau,US,2019-08-26 17:24:50,58.3,-134.42,55.4,87,90,3.36,overcast clouds,0.0,0
545,Lima,PE,2019-08-26 17:28:21,-12.06,-77.04,62.6,77,90,8.05,overcast clouds,0.0,0
546,Barabinsk,RU,2019-08-26 17:28:23,55.35,78.35,70.03,49,68,18.32,broken clouds,0.0,0
547,Manoel Urbano,BR,2019-08-26 17:28:23,-8.84,-69.26,95.23,36,42,1.43,scattered clouds,0.0,0
548,Bauchi,NG,2019-08-26 17:28:23,10.31,9.85,72.37,86,70,1.41,light rain,2.126,0
549,Port Keats,AU,2019-08-26 17:28:24,-14.25,129.55,70.21,91,12,6.22,few clouds,0.0,0
550,Lucapa,AO,2019-08-26 17:28:24,-8.42,20.74,76.33,46,73,1.9,broken clouds,0.0,0
551,Nakuru,KE,2019-08-26 17:26:52,-0.28,36.07,53.11,82,51,7.25,broken clouds,0.0,0
552,Grong,NO,2019-08-26 17:28:25,64.47,12.32,71.6,73,0,8.05,clear sky,0.0,0
553,Moose Factory,CA,2019-08-26 17:28:25,51.26,-80.61,78.8,47,1,13.87,clear sky,0.0,0
554,Tananger,NO,2019-08-26 17:28:25,58.94,5.59,75.2,50,0,11.41,clear sky,0.0,0
555,Pechenga,RU,2019-08-26 17:28:25,58.89,41.46,56.89,93,100,10.2,light rain,1.438,0
556,Estevan,CA,2019-08-26 17:28:26,49.14,-102.99,69.8,52,1,20.8,clear sky,0.0,0
557,Eyl,SO,2019-08-26 17:28:26,7.98,49.82,77.05,73,75,26.04,broken clouds,0.0,0
558,Saint-Augustin,CA,2019-08-26 17:28:26,45.63,-73.98,80.01,47,20,6.93,few clouds,0.0,0
559,Rovaniemi,FI,2019-08-26 17:23:49,66.5,25.72,60.8,67,0,3.36,clear sky,0.0,0
560,Dauphin,CA,2019-08-26 17:28:27,51.15,-100.04,68.0,72,90,9.17,overcast clouds,0.0,0
561,Deep River,CA,2019-08-26 17:28:27,46.1,-77.49,78.01,60,20,8.03,few clouds,0.0,0
562,Port-Gentil,GA,2019-08-26 17:28:27,-0.72,8.78,78.8,83,75,10.29,broken clouds,0.0,0
563,Eureka,US,2019-08-26 17:28:27,40.8,-124.16,73.0,68,1,3.36,haze,0.0,0
564,Moen,BE,2019-08-26 17:28:28,50.77,3.4,90.0,40,0,5.82,clear sky,0.0,0